{"status":"success","request_time":0.067126068,"records":0,"locations":[{"id":"66c50482c625af0615fbd552","name":"Baba's Pizza","open":true,"status":{"label":"open","message":"Open. Closes at 7:00pm.","color":"green"},"occupancy":"na","address":{"street":"18111 Nordhoff St","metadata":null,"city":"Northridge","state":"CA","zip_code":"91330","lat":34.23902416234901,"lon":-118.53122282177353,"phone":"","dst":false,"gmt":0,"phone_formatted":"() -","ext_formatted":null,"gmt_offset":0,"coordinates":[-118.5293265,34.24010180000001],"manual_coords":[34.23902416234901,-118.53122282177353],"abbreviation":null,"zone_name":null}},{"id":"66c5048ac625af06b6ae20f7","name":"The Halal Shack","open":true,"status":{"label":"open","message":"Open. Closes at 7:00pm.","color":"green"},"occupancy":"na","address":{"street":"18111 Nordhoff St","metadata":null,"city":"Northridge","state":"CA","zip_code":"91330","lat":34.239016401533966,"lon":-118.53111687451744,"phone":"","dst":false,"gmt":0,"phone_formatted":"() -","ext_formatted":null,"gmt_offset":0,"coordinates":[-118.5293265,34.24010180000001],"manual_coords":[34.239016401533966,-118.53111687451744],"abbreviation":null,"zone_name":null}},{"id":"5f2c6165bf31720afffe3ca2","name":"G'mos","open":true,"status":{"label":"open","message":"Open. Closes at 10:30pm.","color":"green"},"occupancy":"na","address":{"street":"9851 Zelzah Ave","metadata":"Student Housing","city":"Northridge","state":"CA","zip_code":"91325","lat":34.249634846242536,"lon":-118.52386686442144,"phone":"8054155825","dst":false,"gmt":0,"phone_formatted":"(805) 415-5825","ext_formatted":null,"gmt_offset":0,"coordinates":[-118.5240966,34.2495046],"manual_coords":[34.249634846242536,-118.52386686442144],"abbreviation":null,"zone_name":null}},{"id":"65a19b4b351d53015c2efacd","name":"Matador Mercado at Sierra Center","open":true,"status":{"label":"open","message":"Open. Closes at 5:00pm.","color":"green"},"occupancy":"na","address":{"street":"18111 Nordhoff St","metadata":"Matador Mercado  at Sierra Center","city":"Northrdige","state":"California","zip_code":"91330","lat":34.23893251877896,"lon":-118.53101926518173,"phone":null,"dst":false,"gmt":0,"phone_formatted":null,"ext_formatted":null,"gmt_offset":0,"coordinates":[-118.5293265,34.24010180000001],"manual_coords":[34.23893251877896,-118.53101926518173],"abbreviation":null,"zone_name":null}},{"id":"6104519fe8297114cfa1937b","name":"Shake Smart","open":true,"status":{"label":"open","message":"Open. Closes at 10:00pm.","color":"green"},"occupancy":"na","address":{"street":"18111 Nordhoff St","metadata":"","city":"Northridge","state":"CA","zip_code":"91330","lat":34.23967654286898,"lon":-118.52539668643064,"phone":"7203831476","dst":false,"gmt":0,"phone_formatted":"(720) 383-1476","ext_formatted":null,"gmt_offset":0,"coordinates":[-118.5293265,34.24010180000001],"manual_coords":[34.23967654286898,-118.52539668643064],"abbreviation":null,"zone_name":null}},{"id":"61e723deb63f1e101f7aad84","name":"The Arbor Grill","open":true,"status":{"label":"open","message":"Open. Closes at 7:00pm.","color":"green"},"occupancy":"na","address":{"street":"18111 Nordhoff St","metadata":null,"city":"Northridge","state":"CA","zip_code":"91330","lat":34.24116770320666,"lon":-118.5297472294528,"phone":null,"dst":false,"gmt":0,"phone_formatted":null,"ext_formatted":null,"gmt_offset":0,"coordinates":[-118.5293265,34.24010180000001],"manual_coords":[34.24116770320666,-118.5297472294528],"abbreviation":null,"zone_name":null}},{"id":"5f2c192abf31720af6071622","name":"Matador Mercado at Housing","open":true,"status":{"label":"open","message":"Open. Closes at 10:30pm.","color":"green"},"occupancy":"na","address":{"street":"18111 Nordhoff St","metadata":"Sierra Center","city":"Northridge,","state":"CA","zip_code":"91330","lat":34.247863367815505,"lon":-118.52534073827509,"phone":null,"dst":false,"gmt":0,"phone_formatted":null,"ext_formatted":null,"gmt_offset":0,"coordinates":[-118.52631936633176,34.2455346],"manual_coords":[34.247863367815505,-118.52534073827509],"abbreviation":null,"zone_name":null}},{"id":"63c8ad32c625af0617af0b03","name":"The Arbor Market","open":true,"status":{"label":"open","message":"Open. Closes at 9:00pm.","color":"green"},"occupancy":"na","address":{"street":"18111 Nordhoff St","metadata":null,"city":"Northridge","state":"CA","zip_code":"91330","lat":34.24123865738965,"lon":-118.52971370184011,"phone":"3109802697","dst":false,"gmt":0,"phone_formatted":"(310) 980-2697","ext_formatted":null,"gmt_offset":0,"coordinates":[-118.5262521,34.2399445],"manual_coords":[34.24123865738965,-118.52971370184011],"abbreviation":null,"zone_name":null}},{"id":"610dcd87e829711466be6c75","name":"Freudian Sip at Arbor Court","open":true,"status":{"label":"open","message":"Open. Closes at 7:00pm.","color":"green"},"occupancy":"na","address":{"street":"18111 Nordhoff St","metadata":null,"city":"Northridge","state":"CA","zip_code":"91330","lat":34.2411160227789,"lon":-118.52969605637512,"phone":"3104909628","dst":false,"gmt":0,"phone_formatted":"(310) 490-9628","ext_formatted":null,"gmt_offset":0,"coordinates":[-118.5293265,34.24010180000001],"manual_coords":[34.2411160227789,-118.52969605637512],"abbreviation":null,"zone_name":null}},{"id":"610b253fa9f13a14abeb4692","name":"Subway","open":true,"status":{"label":"open","message":"Open. Closes at 8:00pm.","color":"green"},"occupancy":"na","address":{"street":"18111 Nordhoff St","metadata":"University Student Union","city":"Northridge","state":"CA","zip_code":"91330","lat":34.239680977585735,"lon":-118.52647225224561,"phone":null,"dst":false,"gmt":0,"phone_formatted":null,"ext_formatted":null,"gmt_offset":0,"coordinates":[-118.5262521,34.2399445],"manual_coords":[34.239680977585735,-118.52647225224561],"abbreviation":null,"zone_name":null}},{"id":"61fe35f0b63f1e17b0ba7361","name":"Freudian Sip at Sierra Center","open":true,"status":{"label":"open","message":"Open. Closes at 5:00pm.","color":"green"},"occupancy":"na","address":{"street":"18111 Nordhoff St","metadata":null,"city":"Northridge","state":"CA","zip_code":"91330","lat":34.23889236019876,"lon":-118.5313322038742,"phone":null,"dst":false,"gmt":0,"phone_formatted":null,"ext_formatted":null,"gmt_offset":0,"coordinates":[-118.5293265,34.24010180000001],"manual_coords":[34.23889236019876,-118.5313322038742],"abbreviation":null,"zone_name":null}},{"id":"610dc906e829711470b52666","name":"Matador Mercado at Univ Student Union","open":true,"status":{"label":"open","message":"Open. Closes at 8:00pm.","color":"green"},"occupancy":"na","address":{"street":"18111 Nordhoff St","metadata":"University Student Union","city":"Northridge","state":"CA","zip_code":"91330","lat":34.24004018886623,"lon":-118.52694700324125,"phone":"8184369092","dst":false,"gmt":0,"phone_formatted":"(818) 436-9092","ext_formatted":null,"gmt_offset":0,"coordinates":[-118.5262047,34.2400667],"manual_coords":[34.24004018886623,-118.52694700324125],"abbreviation":null,"zone_name":null}},{"id":"633076b4c625af08ea64e3d5","name":"Marketplace Grab 'N Go","open":true,"status":{"label":"open","message":"Open. Closes at 7:00pm.","color":"green"},"occupancy":"na","address":{"street":"18111 Nordhoff St","metadata":null,"city":"Northridge","state":"CA","zip_code":"91330","lat":34.23889346888819,"lon":-118.5307743043991,"phone":"8187445522","dst":false,"gmt":0,"phone_formatted":"(818) 744-5522","ext_formatted":null,"gmt_offset":0,"coordinates":[-118.5262521,34.2399445],"manual_coords":[34.23889346888819,-118.5307743043991],"abbreviation":null,"zone_name":null}},{"id":"61286b7cb63f1e22194e2dc7","name":"Bamboo Terrace","open":false,"status":{"label":"closed","message":"Closed. Opens at 5:00pm.","color":"red"},"occupancy":"na","address":{"street":"9851 Zelzah Ave","metadata":null,"city":"Northridge","state":"CA","zip_code":"91325","lat":34.24960824108516,"lon":-118.52388832209355,"phone":"","dst":false,"gmt":0,"phone_formatted":"() -","ext_formatted":null,"gmt_offset":0,"coordinates":[-118.5240966,34.2495046],"manual_coords":[34.24960824108516,-118.52388832209355],"abbreviation":null,"zone_name":null}},{"id":"62ce6b31c625af05ef19f62a","name":"Sambazon Acai Bowls","open":true,"status":{"label":"open","message":"Open. Closes at 4:00pm.","color":"green"},"occupancy":"na","address":{"street":"18111 Nordhoff St","metadata":null,"city":"Northridge","state":"CA","zip_code":"91330","lat":34.2374924164821,"lon":-118.52839003169126,"phone":null,"dst":false,"gmt":0,"phone_formatted":null,"ext_formatted":null,"gmt_offset":0,"coordinates":[-118.5262521,34.2399445],"manual_coords":[34.2374924164821,-118.52839003169126],"abbreviation":null,"zone_name":null}},{"id":"610ab6ddb63f1e128e97d23d","name":"Panda Express","open":true,"status":{"label":"open","message":"Open. Closes at 6:00pm.","color":"green"},"occupancy":"na","address":{"street":"18111 Nordhoff St","metadata":"Campus Store Complex","city":"Northridge","state":"CA","zip_code":"91330","lat":34.23723519583789,"lon":-118.52858583294935,"phone":null,"dst":false,"gmt":0,"phone_formatted":null,"ext_formatted":null,"gmt_offset":0,"coordinates":[-118.5293265,34.24010180000001],"manual_coords":[34.23723519583789,-118.52858583294935],"abbreviation":null,"zone_name":null}},{"id":"62ce6beac625af05c51cacb2","name":"Fry Shack","open":true,"status":{"label":"open","message":"Open. Closes at 5:00pm.","color":"green"},"occupancy":"na","address":{"street":"18111 Nordhoff St","metadata":null,"city":"Northridge","state":"CA","zip_code":"91330","lat":34.237137629181156,"lon":-118.52856973969526,"phone":null,"dst":false,"gmt":0,"phone_formatted":null,"ext_formatted":null,"gmt_offset":0,"coordinates":[-118.5293265,34.24010180000001],"manual_coords":[34.237137629181156,-118.52856973969526],"abbreviation":null,"zone_name":null}},{"id":"643dff63e45d430838b9e386","name":"Wild Blue Modern Japanese Kitchen","open":true,"status":{"label":"open","message":"Open. Closes at 3:00pm.","color":"green"},"occupancy":"na","address":{"street":"18111 Nordhoff St","metadata":null,"city":"Northridge","state":"CA","zip_code":"91330","lat":34.2388858109962,"lon":-118.53108804077053,"phone":"","dst":false,"gmt":0,"phone_formatted":"() -","ext_formatted":null,"gmt_offset":0,"coordinates":[-118.5293265,34.24010180000001],"manual_coords":[34.2388858109962,-118.53108804077053],"abbreviation":null,"zone_name":null}},{"id":"610da80ce829711487aa030b","name":"El Pollo Loco","open":true,"status":{"label":"open","message":"Open. Closes at 6:00pm.","color":"green"},"occupancy":"na","address":{"street":"18111 Nordhoff St","metadata":"Campus Store Complex","city":"Northridge","state":"CA","zip_code":"91330","lat":34.23721856516574,"lon":-118.52853487097806,"phone":null,"dst":false,"gmt":0,"phone_formatted":null,"ext_formatted":null,"gmt_offset":0,"coordinates":[-118.52631936633176,34.2455346],"manual_coords":[34.23721856516574,-118.52853487097806],"abbreviation":null,"zone_name":null}},{"id":"610dca4fe829711470b52a89","name":"Freudian Sip at Univ. Student Union","open":true,"status":{"label":"open","message":"Open. Closes at 3:00pm.","color":"green"},"occupancy":"na","address":{"street":"18111 Nordhoff St","metadata":"at University Student Union","city":"Northridge","state":"CA","zip_code":"91330","lat":34.239935973405636,"lon":-118.52716694438047,"phone":null,"dst":false,"gmt":0,"phone_formatted":null,"ext_formatted":null,"gmt_offset":0,"coordinates":[-118.5262521,34.2399445],"manual_coords":[34.239935973405636,-118.52716694438047],"abbreviation":null,"zone_name":null}},{"id":"64d45da0351d5305af9f4635","name":"Pueblo","open":true,"status":{"label":"open","message":"Open. Closes at 7:00pm.","color":"green"},"occupancy":"na","address":{"street":"18111 Nordhoff St","metadata":"The Marketplace at Sierra Center","city":"Northridge","state":"CA","zip_code":"91330","lat":34.23896023599972,"lon":-118.53108095598907,"phone":null,"dst":false,"gmt":0,"phone_formatted":null,"ext_formatted":null,"gmt_offset":0,"coordinates":[-118.5293265,34.24010180000001],"manual_coords":[34.23896023599972,-118.53108095598907],"abbreviation":null,"zone_name":null}},{"id":"62fd58ccc625af071c913acd","name":"Freudian Sip at University Library","open":true,"status":{"label":"open","message":"Open. Closes at 8:00pm.","color":"green"},"occupancy":"na","address":{"street":"18111 Nordhoff St","metadata":null,"city":"Northridge","state":"CA","zip_code":"91330","lat":34.23991110792231,"lon":-118.52948609143638,"phone":"","dst":false,"gmt":0,"phone_formatted":"() -","ext_formatted":null,"gmt_offset":0,"coordinates":[-118.5293265,34.24010180000001],"manual_coords":[34.23991110792231,-118.52948609143638],"abbreviation":null,"zone_name":null}},{"id":"610dcc32e829711494a0863f","name":"Matador Mercado at Campus Store Complex","open":true,"status":{"label":"open","message":"Open. Closes at 8:00pm.","color":"green"},"occupancy":"na","address":{"street":"18111 Nordhoff St","metadata":"at Campus Store Complex","city":"Northridge","state":"CA","zip_code":"91330","lat":34.237317240439076,"lon":-118.52843831145353,"phone":null,"dst":false,"gmt":0,"phone_formatted":null,"ext_formatted":null,"gmt_offset":0,"coordinates":[-118.52631936633176,34.2455346],"manual_coords":[34.237317240439076,-118.52843831145353],"abbreviation":null,"zone_name":null}}]}